time,lat,lon,pitch,roll,yaw,pitch_rate,roll_rate,yaw_rate,pitch_gain,roll_gain,yaw_gain,pitch_setpoint,roll_setpoint,yaw_setpoint,throttle_setpoint,editing_gain
220,0.0,0.0,1.7031240463256836,1.035936713218689,-1.5265675783157349,0.017115537077188492,-0.0063740708865225315,0.011739883571863174,0.0,0.0,0.0,-706,-706,-706,-104,b'\x00'
440,0.0,0.0,1.8529301881790161,1.471697449684143,-2.20582914352417,-0.053829606622457504,0.02856317162513733,-0.005692855454981327,0.0,0.0,0.0,-706,-706,-706,-104,b'\x00'
660,0.0,0.0,1.6942111253738403,1.7426834106445312,-2.448516368865967,0.07998418807983398,-0.019428908824920654,0.00838271901011467,0.0,0.0,0.0,-706,-706,-706,-104,b'\x00'
880,0.0,0.0,2.2939164638519287,1.7920724153518677,-2.802501916885376,-0.002429001033306122,0.04385469853878021,-0.0036503197625279427,0.0,0.0,0.0,-706,-706,-706,-104,b'\x00'
1100,0.0,0.0,2.362067937850952,1.8026288747787476,-2.9073195457458496,0.06541477143764496,0.013208064250648022,0.006779351271688938,0.0,0.0,0.0,-706,-706,-706,-104,b'\x00'
1320,0.0,0.0,2.940979480743408,1.6411546468734741,-3.0085344314575195,0.11188417673110962,-0.04027819260954857,0.012832211330533028,0.0,0.0,0.0,-706,-706,-706,-104,b'\x00'
1540,0.0,0.0,3.6213109493255615,1.4261093139648438,-3.217886447906494,-0.03655216097831726,0.022152960300445557,-0.0009097512811422348,0.0,0.0,0.0,-706,-706,-706,-104,b'\x00'
1760,0.0,0.0,2.775895595550537,1.74956214427948,-3.2740285396575928,0.020745333284139633,-0.001654941588640213,0.003945915028452873,0.0,0.0,0.0,-706,-706,-706,-104,b'\x00'
1980,0.0,0.0,4.646050453186035,1.1788603067398071,-3.3236536979675293,0.14602985978126526,-0.04757678881287575,0.006693819537758827,0.0,0.0,0.0,-706,-706,-706,-104,b'\x00'
2200,0.0,0.0,4.340111255645752,1.2764614820480347,-3.466395139694214,-0.07109954208135605,0.02059517800807953,0.006023327354341745,0.0,0.0,0.0,-706,-706,-706,-104,b'\x00'
2420,0.0,0.0,3.46547532081604,1.6550875902175903,-3.5325491428375244,-0.01689888909459114,0.010261579416692257,0.002651797141879797,0.0,0.0,0.0,-706,-706,-706,-104,b'\x00'
2640,0.0,0.0,3.225113868713379,1.6729027032852173,-3.5934526920318604,-0.0209747813642025,0.009482493624091148,0.0021242056973278522,0.0,0.0,0.0,-706,-706,-706,-104,b'\x00'
2860,0.0,0.0,3.124342679977417,1.676452398300171,-3.597144842147827,0.02478192374110222,-0.03303837403655052,0.007383087649941444,0.0,0.0,0.0,-706,-706,-706,-104,b'\x00'
3080,0.0,0.0,3.276810884475708,1.9025799036026,-3.712590456008911,0.06233620271086693,0.028839606791734695,-0.0016523618251085281,0.0,0.0,0.0,-706,-706,-706,-104,b'\x00'
3300,0.0,0.0,3.3241078853607178,1.901505708694458,-3.7878479957580566,0.022619573399424553,0.030267566442489624,0.017482686787843704,0.0,0.0,0.0,-706,-706,-706,-104,b'\x00'
3520,0.0,0.0,3.3922278881073,1.9396687746047974,-3.819133996963501,0.011167582124471664,0.02328040450811386,0.011508297175168991,0.0,0.0,0.0,-706,-706,-706,-104,b'\x00'
3740,0.0,0.0,3.44221830368042,1.8717858791351318,-3.8378567695617676,0.02403939887881279,-0.004628476221114397,0.0034379251301288605,0.0,0.0,0.0,-706,-706,-706,-104,b'\x00'
3960,0.0,0.0,3.142376661300659,1.99275803565979,-3.9640681743621826,-0.012432180345058441,0.0391843318939209,-0.012170134112238884,0.0,0.0,0.0,-706,-706,-706,-104,b'\x00'
4180,0.0,0.0,3.1624581813812256,2.017882823944092,-3.9707818031311035,0.037779927253723145,-0.01808501034975052,0.007986579090356827,0.0,0.0,0.0,-706,-706,-706,-104,b'\x00'
4400,0.0,0.0,3.03399658203125,1.9978395700454712,-4.02231502532959,-0.017850711941719055,0.0006882492452859879,0.016544045880436897,0.0,0.0,0.0,-706,-706,-706,-104,b'\x00'
4620,0.0,0.0,2.5402705669403076,2.1130356788635254,-4.0058488845825195,-0.012883726507425308,0.013518729247152805,0.0038693943060934544,0.0,0.0,0.0,-706,-706,-706,-104,b'\x00'
4840,0.0,0.0,2.3388683795928955,2.066105842590332,-3.9103853702545166,0.013925828039646149,0.022424396127462387,0.006373016629368067,0.0,0.0,0.0,-706,-706,-706,-104,b'\x00'
5060,0.0,0.0,2.0583600997924805,1.9595996141433716,-3.8796820640563965,-0.01836623251438141,0.017220374196767807,0.0030260724015533924,0.0,0.0,0.0,-706,-706,-706,-104,b'\x00'
5280,0.0,0.0,1.674460530281067,2.0321896076202393,-3.7403981685638428,-0.0516413077712059,-0.014557833783328533,0.005438328720629215,0.0,0.0,0.0,-706,-706,-706,-104,b'\x00'
5500,0.0,0.0,1.0016225576400757,1.851378083229065,-3.6045401096343994,0.0012402459979057312,0.013250324875116348,-0.003976736217737198,0.0,0.0,0.0,-706,-706,-706,-104,b'\x00'
5720,0.0,0.0,0.8541768193244934,1.8725181818008423,-3.4157071113586426,0.035227175801992416,0.012886924669146538,0.0014023305848240852,0.0,0.0,0.0,-706,-706,-706,-104,b'\x00'
5940,0.0,0.0,2.1125283241271973,1.3426806926727295,-3.0508735179901123,0.15267322957515717,-0.04425610229372978,0.011138221248984337,0.0,0.0,0.0,-706,-706,-706,-104,b'\x00'
6160,0.0,0.0,3.833897590637207,0.6633432507514954,-2.8071978092193604,0.07820896804332733,-0.010261956602334976,-0.0011623278260231018,0.0,0.0,0.0,-706,-706,-706,-104,b'\x00'
6380,0.0,0.0,4.0338640213012695,0.4640873968601227,-2.4555459022521973,0.05986269190907478,-0.011897016316652298,0.029421137645840645,0.0,0.0,0.0,-706,-706,-706,-104,b'\x00'
6600,0.0,0.0,3.948648452758789,0.3223395347595215,-2.1753532886505127,-0.011668343096971512,0.0009221164509654045,0.0020123180001974106,0.0,0.0,0.0,-706,-706,-706,-104,b'\x00'
6820,0.0,0.0,2.460710048675537,0.820337176322937,-1.7869757413864136,-0.22837388515472412,-0.0011541564017534256,0.038651175796985626,0.0,0.0,0.0,-706,-706,-706,-104,b'\x00'
7040,0.0,0.0,3.017641305923462,0.48133790493011475,-1.5958452224731445,0.1996840536594391,-0.07633902132511139,-0.01003933697938919,0.0,0.0,0.0,-706,-706,-706,-104,b'\x00'
7260,0.0,0.0,4.384147644042969,0.046362001448869705,-1.3588528633117676,-0.053752146661281586,0.003454151563346386,-0.0016446737572550774,0.0,0.0,0.0,-706,-706,-706,-104,b'\x00'
7480,0.0,0.0,1.4431724548339844,0.8200408220291138,-1.0952186584472656,-0.14649800956249237,0.03454554080963135,-0.019270507618784904,0.0,0.0,0.0,-706,-706,-706,-104,b'\x00'
7700,0.0,0.0,2.164620876312256,0.5982118844985962,-0.7773038744926453,0.00019327178597450256,-0.03953438624739647,0.014196045696735382,0.0,0.0,0.0,-706,-706,-706,-104,b'\x00'
7920,0.0,0.0,1.3725190162658691,0.8250220417976379,-0.569015622138977,0.038493018597364426,0.004615705460309982,-0.003717733547091484,0.0,0.0,0.0,-706,-706,-706,-104,b'\x00'
8140,0.0,0.0,0.6088572144508362,0.9153294563293457,-0.30870094895362854,0.1165722981095314,-0.009741442278027534,0.006346897222101688,0.0,0.0,0.0,-706,-706,-706,-104,b'\x00'
8360,0.0,0.0,2.533463716506958,0.3684689402580261,-0.008485093712806702,0.14010414481163025,-0.00731717050075531,0.035949014127254486,0.0,0.0,0.0,-706,-706,-706,-104,b'\x00'
8580,0.0,0.0,2.52828311920166,0.40792328119277954,0.18570736050605774,-0.021666646003723145,0.0034762276336550713,0.026235004886984825,0.0,0.0,0.0,-706,-706,-706,-104,b'\x00'
8800,0.0,0.0,2.9313530921936035,0.2114231288433075,0.42902258038520813,0.06166785955429077,0.00020891334861516953,0.00936540775001049,0.0,0.0,0.0,-706,-706,-706,-104,b'\x00'
9020,0.0,0.0,2.9046075344085693,0.1414693146944046,0.7178587913513184,-0.06395977735519409,0.00343288853764534,0.03270171210169792,0.0,0.0,0.0,-706,-706,-706,-104,b'\x00'
9240,0.0,0.0,-0.42012909054756165,0.536232054233551,1.2880338430404663,-0.4145442843437195,-0.09204138815402985,0.037355802953243256,0.0,0.0,0.0,-706,-706,-706,-104,b'\x00'
9460,0.0,0.0,-1.2519402503967285,-1.5980863571166992,1.6833523511886597,-0.05779852718114853,-0.22663822770118713,0.0263054296374321,0.0,0.0,0.0,-706,-706,-706,-104,b'\x00'
9680,0.0,0.0,-2.147888660430908,-5.924229145050049,0.3242364227771759,-0.06346000730991364,-0.3007694482803345,-0.14590322971343994,0.0,0.0,0.0,-706,-706,-706,-104,b'\x00'
9900,0.0,0.0,-2.5809545516967773,-7.928531646728516,-0.5606690645217896,-0.024446435272693634,-0.03807736560702324,0.033714815974235535,0.0,0.0,0.0,-706,-706,-706,-104,b'\x00'
10120,0.0,0.0,-2.5119433403015137,-6.802906036376953,-0.02861887961626053,0.0005672983825206757,0.12016849219799042,0.04851763695478439,0.0,0.0,0.0,-706,-706,-706,-104,b'\x00'
10340,0.0,0.0,-2.5402753353118896,-6.102141380310059,0.24610421061515808,-0.00011463835835456848,0.005145329982042313,0.0077077653259038925,0.0,0.0,0.0,-706,-706,-706,-104,b'\x00'
10560,0.0,0.0,-2.5454609394073486,-6.397317409515381,0.17666544020175934,0.0006311610341072083,-0.015435345470905304,-0.004072311334311962,0.0,0.0,0.0,-706,-706,-706,-104,b'\x00'
10780,0.0,0.0,-2.5036299228668213,-5.808162212371826,0.4085313677787781,-9.615719318389893e-05,0.05823378264904022,0.04422297328710556,0.0,0.0,0.0,-706,-706,-706,-104,b'\x00'
11000,0.0,0.0,-2.434065580368042,-5.417486667633057,0.813646674156189,0.002959415316581726,-0.039757613092660904,0.007359826005995274,0.0,0.0,0.0,-706,-706,-706,-104,b'\x00'
11220,0.0,0.0,-2.4605674743652344,-6.262964725494385,0.5709683895111084,-0.006674144417047501,-0.050365645438432693,-0.012561109848320484,0.0,0.0,0.0,-706,-706,-706,-104,b'\x00'
11440,0.0,0.0,-2.7717621326446533,-6.813680171966553,0.6042956709861755,-0.014691773802042007,-0.020196061581373215,0.015724757686257362,0.0,0.0,0.0,-706,-706,-706,-104,b'\x00'
11660,0.0,0.0,-2.8682260513305664,-7.05681037902832,0.5448634624481201,-0.007448691874742508,-0.019233543425798416,0.0089245131239295,0.0,0.0,0.0,-706,-706,-706,-104,b'\x00'
11880,0.0,0.0,-2.877311944961548,-7.235950469970703,0.474145770072937,-0.003347184509038925,-0.008188732899725437,0.008215486072003841,0.0,0.0,0.0,-706,-706,-706,-104,b'\x00'
12100,0.0,0.0,-2.8621137142181396,-7.193272590637207,0.49034425616264343,0.00468948669731617,0.002533169463276863,0.00836078729480505,0.0,0.0,0.0,-706,-706,-706,-104,b'\x00'
12320,0.0,0.0,-2.8550171852111816,-7.085285663604736,0.4841051399707794,-0.0009776055812835693,0.008949684910476208,0.009336085990071297,0.0,0.0,0.0,-706,-706,-706,-104,b'\x00'
12540,0.0,0.0,-2.8316550254821777,-6.868494033813477,0.5344948768615723,0.002673998475074768,0.014804386533796787,0.019522245973348618,0.0,0.0,0.0,36,54,-18,0,b'\x00'
12760,0.0,0.0,-2.83589768409729,-6.861025333404541,0.5552011132240295,0.005507739260792732,-0.002750387880951166,0.001290682703256607,0.0,0.0,0.0,36,55,-17,0,b'\x00'
12980,0.0,0.0,-2.8595941066741943,-6.942181587219238,0.5288390517234802,0.0008119754493236542,-0.0077052488923072815,0.0027070259675383568,0.0,0.0,0.0,37,54,-17,0,b'\x00'
13200,0.0,0.0,-2.886000633239746,-6.9372687339782715,0.5474332571029663,-0.0023442059755325317,0.0017320727929472923,0.0069891903549432755,0.0,0.0,0.0,37,-43,-17,0,b'\x00'
13420,0.0,0.0,-2.908820867538452,-6.900136947631836,0.5367317199707031,0.00277150422334671,0.011443722061812878,0.0072701298631727695,0.0,0.0,0.0,37,13,-17,0,b'\x00'
13640,0.0,0.0,-2.923746109008789,-6.779682636260986,0.6114363670349121,0.0009353756904602051,0.0007284283638000488,0.012297366745769978,0.0,0.0,0.0,37,54,-17,0,b'\x00'
13860,0.0,0.0,-2.951241970062256,-6.772157192230225,0.611844003200531,0.0020580142736434937,0.003929855301976204,0.004427643958479166,0.0,0.0,0.0,37,54,-19,0,b'\x00'
14080,0.0,0.0,-2.9466283321380615,-6.681027412414551,0.6782748699188232,0.0022787712514400482,0.007044490426778793,0.009683449752628803,0.0,0.0,0.0,36,54,-19,0,b'\x00'
14300,0.0,0.0,-2.954693078994751,-6.71985387802124,0.6930124163627625,-0.001314353197813034,-0.00896993838250637,0.003332837950438261,0.0,0.0,0.0,37,54,-18,0,b'\x00'
14520,0.0,0.0,-2.973569393157959,-6.795504570007324,0.6628537774085999,0.002324521541595459,0.0060829902067780495,0.006739173084497452,0.0,0.0,0.0,37,54,-18,0,b'\x00'
14740,0.0,0.0,-2.961869716644287,-6.643404006958008,0.7130846977233887,0.005015784874558449,0.01581888273358345,0.01010507345199585,0.0,0.0,0.0,42,24,-18,0,b'\x00'
14960,0.0,0.0,-2.9598002433776855,-6.612997531890869,0.732101321220398,-0.00028160959482192993,-0.0064502013847231865,0.0069069890305399895,0.0,0.0,0.0,55,-78,-18,0,b'\x00'
15180,0.0,0.0,-2.9856820106506348,-6.643608570098877,0.7248736023902893,0.0009272024035453796,0.006849957630038261,0.00558827817440033,0.0,0.0,0.0,58,-78,-18,0,b'\x00'
15400,0.0,0.0,-2.988708972930908,-6.527512073516846,0.778523325920105,-0.0011784397065639496,0.009768081828951836,0.01073651947081089,0.0,0.0,0.0,46,106,-18,0,b'\x00'
15620,0.0,0.0,-2.99604868888855,-6.542477607727051,0.7930315732955933,-0.004354257136583328,-0.00911302212625742,0.004827153868973255,0.0,0.0,0.0,40,175,-18,0,b'\x00'
15840,0.0,0.0,-3.005288600921631,-6.64445161819458,0.7644878029823303,-0.004930656403303146,-0.0025817961432039738,0.008858826011419296,0.0,0.0,0.0,36,11,-19,0,b'\x00'
16060,0.0,0.0,-3.0084307193756104,-6.681571006774902,0.7475250363349915,0.00016917288303375244,0.0011039292439818382,0.007147134747356176,0.0,0.0,0.0,-95,22,-18,0,b'\x00'
16280,0.0,0.0,-3.0145316123962402,-6.6663818359375,0.7534113526344299,-0.0009388439357280731,-0.00035209115594625473,0.006343500688672066,0.0,0.0,0.0,-46,16,-18,0,b'\x00'
16500,0.0,0.0,-3.03144907951355,-6.686269283294678,0.7432186603546143,-0.004518646746873856,0.0032348744571208954,0.008293556049466133,0.0,0.0,0.0,37,54,-95,0,b'\x00'
16720,0.0,0.0,-3.0404722690582275,-6.64809513092041,0.7353607416152954,-5.104765295982361e-05,0.004313875921070576,0.006274176295846701,0.0,0.0,0.0,37,54,-205,0,b'\x00'
16940,0.0,0.0,-3.0411362648010254,-6.6696953773498535,0.7300165295600891,-0.0010362304747104645,-0.006506391800940037,0.005701853893697262,0.0,0.0,0.0,37,54,28,0,b'\x00'
17160,0.0,0.0,-3.0547232627868652,-6.729030609130859,0.6899070739746094,0.0015143975615501404,-0.0003084000200033188,0.004012533463537693,0.0,0.0,0.0,37,54,172,0,b'\x00'
17380,0.0,0.0,-3.0626745223999023,-6.690512657165527,0.6779313087463379,-0.0001298859715461731,6.548594683408737e-05,0.007351876702159643,0.0,0.0,0.0,36,54,-14,0,b'\x00'
17600,0.0,0.0,-2.9760096073150635,-6.460646629333496,0.7085055112838745,0.006548736244440079,-0.029349304735660553,0.0064531476236879826,0.0,0.0,0.0,37,55,-202,0,b'\x00'
17820,0.0,0.0,-3.153330087661743,-6.779027938842773,0.6892659068107605,-0.030932217836380005,-0.060391515493392944,-0.002669086679816246,0.0,0.0,0.0,37,55,-70,0,b'\x00'
18040,0.0,0.0,-3.6339941024780273,-6.668481826782227,0.46261367201805115,0.002690844237804413,-0.09824491292238235,-0.0203058123588562,0.0,0.0,0.0,36,54,167,0,b'\x00'
18260,0.0,0.0,-3.6428635120391846,-6.6284098625183105,0.518862247467041,-0.008793685585260391,-0.043152667582035065,-0.01742699183523655,0.0,0.0,0.0,37,54,133,0,b'\x00'
18480,0.0,0.0,-3.6403965950012207,-6.548851490020752,0.4209445118904114,0.002398379147052765,0.030804485082626343,0.01516005303710699,0.0,0.0,0.0,37,54,-17,0,b'\x00'
18700,0.0,0.0,-3.5271317958831787,-5.886706829071045,0.6357839703559875,0.014638993889093399,0.06711798161268234,0.02728896774351597,0.0,0.0,0.0,51,-23,-17,0,b'\x00'
18920,0.0,0.0,-3.4744973182678223,-5.58510160446167,0.8371694087982178,-0.00039155781269073486,-0.014715591445565224,0.004204198718070984,0.0,0.0,0.0,37,35,-18,0,b'\x00'
19140,0.0,0.0,-3.5412020683288574,-6.015693664550781,0.7576329708099365,-0.003126099705696106,-0.017553076148033142,-0.0019051670096814632,0.0,0.0,0.0,39,51,-17,0,b'\x00'
19360,0.0,0.0,-3.515404224395752,-5.88053560256958,0.812343418598175,0.0021633096039295197,0.026481008157134056,0.01208973117172718,0.0,0.0,0.0,38,54,-17,0,b'\x00'
19580,0.0,0.0,-3.50058913230896,-5.766623020172119,0.8999553322792053,-0.0011241547763347626,-0.00992633868008852,-0.0017260704189538956,0.0,0.0,0.0,38,54,-17,0,b'\x00'
19800,0.0,0.0,-3.524641990661621,-5.943840503692627,0.869745135307312,-0.0013994872570037842,-0.0042294398881495,0.005228951573371887,0.0,0.0,0.0,37,55,-17,12,b'\x00'
20020,0.0,0.0,-3.488774061203003,-5.712356090545654,0.9529309272766113,0.0030978620052337646,0.027898579835891724,0.015427868813276291,0.0,0.0,0.0,37,55,-15,40,b'\x00'
20240,0.0,0.0,-3.465226650238037,-5.7526021003723145,0.9858537316322327,7.550790905952454e-05,-0.02929707244038582,0.04027709364891052,0.0,0.0,0.0,37,55,-16,52,b'\x00'
20460,0.0,0.0,-3.4373209476470947,-6.038844585418701,0.9092550873756409,-7.449835538864136e-05,-0.02569563314318657,-0.023878946900367737,0.0,0.0,0.0,37,55,-17,61,b'\x00'
20680,0.0,0.0,-3.407123565673828,-6.3313469886779785,0.8047565817832947,-0.015839308500289917,0.04492994770407677,0.0009804489091038704,0.0,0.0,0.0,38,55,-6,14,b'\x00'
20900,0.0,0.0,-3.332350015640259,-5.74290657043457,1.018262267112732,0.0716930702328682,0.06942705065011978,-0.0026926901191473007,0.0,0.0,0.0,37,54,-14,19,b'\x00'
21120,0.0,0.0,-3.30316424369812,-5.685037136077881,1.104132056236267,-0.010537896305322647,-0.04327477514743805,0.010537195019423962,0.0,0.0,0.0,38,54,-17,56,b'\x00'
21340,0.0,0.0,-3.255983829498291,-6.162252426147461,0.9434247016906738,-0.007747981697320938,-0.04117007926106453,-0.04113871604204178,0.0,0.0,0.0,37,55,-16,51,b'\x00'
21560,0.0,0.0,-3.21388578414917,-5.930142402648926,1.0610779523849487,0.028431937098503113,0.09429976344108582,0.0030965940095484257,0.0,0.0,0.0,38,54,-17,0,b'\x00'
21780,0.0,0.0,-3.131462574005127,-5.38427209854126,1.2327871322631836,0.048680711537599564,0.02101937308907509,0.014502381905913353,0.0,0.0,0.0,38,54,-17,0,b'\x00'
22000,0.0,0.0,-3.1568143367767334,-5.306375026702881,1.3023176193237305,-0.02192245051264763,0.0009588673710823059,0.0019616875797510147,0.0,0.0,0.0,37,54,-19,0,b'\x00'
22220,0.0,0.0,-3.1814956665039062,-5.276182174682617,1.3443236351013184,-0.0045873187482357025,0.02103760838508606,0.03214208409190178,0.0,0.0,0.0,37,54,-18,0,b'\x00'
22440,0.0,0.0,-3.210254192352295,-5.351980686187744,1.3553036451339722,0.005861680954694748,-0.012358345091342926,-0.005821930710226297,0.0,0.0,0.0,37,55,-18,1,b'\x00'
22660,0.0,0.0,-3.2493231296539307,-5.412985801696777,1.3510771989822388,0.0030281879007816315,0.01434445008635521,0.014774331822991371,0.0,0.0,0.0,37,55,-18,0,b'\x00'
22880,0.0,0.0,-3.248838424682617,-5.2573957443237305,1.4385831356048584,0.009497316554188728,0.017038404941558838,0.011426320299506187,0.0,0.0,0.0,37,54,-18,0,b'\x00'
23100,0.0,0.0,-3.2612357139587402,-5.267380714416504,1.5220518112182617,-0.002083800733089447,-0.013936610892415047,0.0043017384596168995,0.0,0.0,0.0,37,55,-18,0,b'\x00'
23320,0.0,0.0,-3.28080415725708,-5.234364986419678,1.5270862579345703,0.004118088632822037,0.02058786153793335,0.00788642093539238,0.0,0.0,0.0,38,54,-18,0,b'\x00'
23540,0.0,0.0,-3.2962403297424316,-5.156597137451172,1.608905553817749,-0.004050493240356445,-0.016390696167945862,-0.0004796041175723076,0.0,0.0,0.0,37,55,-18,1,b'\x00'
23980,0.0,0.0,-3.378632068634033,-5.454444408416748,1.5364199876785278,0.0016658678650856018,0.01271852757781744,0.006594235543161631,0.0,0.0,0.0,37,54,-18,0,b'\x00'
24200,0.0,0.0,-3.3873822689056396,-5.36053466796875,1.5915851593017578,-0.0002228766679763794,-0.001772107556462288,0.004324846900999546,0.0,0.0,0.0,37,54,-19,0,b'\x00'
24420,0.0,0.0,-3.4061636924743652,-5.373228549957275,1.6132639646530151,-0.001173563301563263,0.00017356127500534058,0.0017362916842103004,0.0,0.0,0.0,37,55,-18,0,b'\x00'
24640,0.0,0.0,-3.4369447231292725,-5.4154462814331055,1.651306390762329,0.005891656503081322,0.054345693439245224,0.0010496003087610006,0.0,0.0,0.0,37,54,-18,0,b'\x00'
24860,0.0,0.0,-3.312581777572632,-4.811593532562256,1.9089226722717285,0.0316145159304142,0.0739649161696434,0.04513604938983917,0.0,0.0,0.0,38,55,-18,1,b'\x00'
25080,0.0,0.0,-2.8210456371307373,-3.9812021255493164,3.3577685356140137,0.006715048104524612,0.028225569054484367,0.1424768716096878,0.0,0.0,0.0,37,55,-18,1,b'\x00'
25300,0.0,0.0,-2.887545585632324,-3.579019784927368,3.979417562484741,-0.022595494985580444,0.004337728954851627,-0.01111827977001667,0.0,0.0,0.0,38,54,-19,0,b'\x00'
25520,0.0,0.0,-3.1754558086395264,-4.255375862121582,3.927248239517212,-0.014088962227106094,-0.09172698855400085,-0.03279680758714676,0.0,0.0,0.0,37,55,-17,5,b'\x00'
25740,0.0,0.0,-3.3939363956451416,-5.569436073303223,3.5868799686431885,-0.01546160876750946,-0.07142958045005798,-0.015759525820612907,0.0,0.0,0.0,37,54,-17,35,b'\x00'
25960,0.0,0.0,-3.3505289554595947,-5.964118480682373,3.4624834060668945,0.04404497891664505,0.014271104708313942,0.005213443655520678,0.0,0.0,0.0,38,54,-18,38,b'\x00'
26180,0.0,0.0,-3.2366812229156494,-6.08516263961792,3.412564992904663,0.0037140585482120514,-0.07722458243370056,0.010423598811030388,0.0,0.0,0.0,37,54,-19,48,b'\x00'
26400,0.0,0.0,-3.0766000747680664,-6.572135925292969,3.2636804580688477,-0.009181804955005646,-0.05461949110031128,-0.014363259077072144,0.0,0.0,0.0,38,54,-18,81,b'\x00'
26620,0.0,0.0,-2.8380849361419678,-6.793372631072998,3.1917567253112793,0.009853731840848923,0.024229850620031357,0.017331795766949654,0.0,0.0,0.0,38,55,-17,89,b'\x00'
26840,0.0,0.0,-2.725320816040039,-6.062297821044922,3.5421090126037598,0.05813581496477127,0.051727764308452606,0.11255030333995819,0.0,0.0,0.0,38,55,-16,22,b'\x00'
27060,0.0,0.0,-2.599783420562744,-4.988569259643555,3.8545725345611572,0.050145573914051056,0.04832449182868004,-0.007005992345511913,0.0,0.0,0.0,37,55,-18,8,b'\x00'
27280,0.0,0.0,-2.5493991374969482,-4.667272567749023,3.984534740447998,-0.03126227483153343,-0.016098396852612495,0.036065682768821716,0.0,0.0,0.0,38,54,-17,0,b'\x00'
27500,0.0,0.0,-2.6331775188446045,-5.037008762359619,3.8914601802825928,-0.006753120571374893,-0.0176568441092968,0.00814683549106121,0.0,0.0,0.0,38,55,-17,0,b'\x00'
27720,0.0,0.0,-2.2962584495544434,-4.789068222045898,4.002231121063232,0.07569371908903122,0.046664170920848846,0.024501582607626915,0.0,0.0,0.0,37,54,-18,0,b'\x00'
27940,0.0,0.0,-2.5311548709869385,-4.269011497497559,4.586573123931885,-0.0002391226589679718,0.04361531883478165,0.014371293596923351,0.0,0.0,0.0,37,54,-18,0,b'\x00'
28160,0.0,0.0,0.8783130049705505,-4.185825347900391,4.476263523101807,0.8181223273277283,-0.07048095017671585,-0.1096508651971817,0.0,0.0,0.0,38,55,-17,0,b'\x00'
28380,0.0,0.0,5.0237555503845215,-4.011922836303711,5.482861042022705,-0.010891567915678024,-0.01656876876950264,0.07872743904590607,0.0,0.0,0.0,38,54,-17,1,b'\x00'
28600,0.0,0.0,4.479573726654053,-4.293898105621338,4.45179557800293,-0.08192083239555359,-0.018802344799041748,-0.04448378458619118,0.0,0.0,0.0,37,55,-18,0,b'\x00'
28820,0.0,0.0,4.138523101806641,-5.277931213378906,5.70717716217041,-0.06095900386571884,0.08146987855434418,0.09538008272647858,0.0,0.0,0.0,37,54,-18,0,b'\x00'
29040,0.0,0.0,-2.549453020095825,-5.334239959716797,6.3701982498168945,-0.6873794794082642,0.07469931244850159,0.2626703679561615,0.0,0.0,0.0,37,55,-18,1,b'\x00'
29260,0.0,0.0,-6.567639350891113,-6.5048346519470215,11.149219512939453,0.13882136344909668,-0.163334921002388,0.2920369803905487,0.0,0.0,0.0,37,54,-18,0,b'\x00'
29480,0.0,0.0,-5.864549160003662,-7.979543685913086,7.952410697937012,0.0900840163230896,-0.3592888414859772,-0.17685672640800476,0.0,0.0,0.0,38,53,-17,1,b'\x00'
29700,0.0,0.0,-6.713244438171387,-7.407225608825684,10.336557388305664,-0.7032572031021118,0.11508990824222565,0.13278692960739136,0.0,0.0,0.0,38,54,-17,0,b'\x00'
29920,0.0,0.0,-16.012283325195312,-5.296079158782959,10.927489280700684,-0.1984437108039856,0.34011581540107727,0.12291203439235687,0.0,0.0,0.0,37,54,-18,0,b'\x00'
30140,0.0,0.0,-14.181248664855957,-1.6056089401245117,11.399362564086914,0.2029319554567337,0.21657782793045044,0.020339205861091614,0.0,0.0,0.0,38,54,-17,1,b'\x00'
30360,0.0,0.0,-7.660916328430176,2.0968801975250244,10.617420196533203,0.6034878492355347,0.07080422341823578,-0.0961720272898674,0.0,0.0,0.0,38,53,-17,1,b'\x00'
30580,0.0,0.0,-5.275660991668701,1.5357586145401,13.366669654846191,-0.1165303960442543,-0.25980398058891296,0.2369590401649475,0.0,0.0,0.0,37,54,-17,0,b'\x00'
30800,0.0,0.0,-5.780089855194092,-3.313563585281372,15.08824348449707,0.02438279241323471,-0.41600942611694336,0.06342228502035141,0.0,0.0,0.0,37,54,-18,0,b'\x00'
31020,0.0,0.0,-5.6399431228637695,-7.800707817077637,15.799205780029297,-0.011558901518583298,-0.24708032608032227,0.018090497702360153,0.0,0.0,0.0,37,54,-18,1,b'\x00'
31240,0.0,0.0,-6.643951416015625,-9.342893600463867,15.4205904006958,-0.15254324674606323,0.007759676314890385,-0.002189881168305874,0.0,0.0,0.0,37,54,-18,0,b'\x00'
31460,0.0,0.0,-9.075444221496582,-8.489595413208008,15.98139476776123,-0.17841407656669617,0.16140364110469818,0.057364024221897125,0.0,0.0,0.0,38,53,-17,1,b'\x00'
31680,0.0,0.0,-11.106677055358887,-6.74746561050415,15.120804786682129,-0.21605058014392853,0.16096800565719604,-0.07111696898937225,0.0,0.0,0.0,37,54,-18,0,b'\x00'
31900,0.0,0.0,-14.496610641479492,-6.273091793060303,14.195215225219727,-0.23432983458042145,0.08627515286207199,-0.03399631381034851,0.0,0.0,0.0,37,54,-18,0,b'\x00'
32120,0.0,0.0,-15.518876075744629,-5.301795959472656,14.073572158813477,-0.07350985705852509,0.10946213454008102,-0.029856864362955093,0.0,0.0,0.0,38,53,-17,1,b'\x00'
32340,0.0,0.0,-17.203014373779297,-3.646210193634033,11.638720512390137,-0.2539357542991638,0.20901404321193695,-0.2675229012966156,0.0,0.0,0.0,37,54,-18,1,b'\x00'
32560,0.0,0.0,-19.36644744873047,-1.1584560871124268,6.672323703765869,-0.061705682426691055,0.23605811595916748,-0.4525792598724365,0.0,0.0,0.0,37,54,-18,0,b'\x00'
32780,0.0,0.0,-17.399417877197266,1.6797858476638794,1.5833913087844849,0.3227504789829254,0.19194887578487396,-0.4229562282562256,0.0,0.0,0.0,38,54,-17,1,b'\x00'
33000,0.0,0.0,-14.148605346679688,3.3338634967803955,-0.9757971167564392,0.11777328699827194,0.10351946949958801,-0.15624161064624786,0.0,0.0,0.0,37,55,-18,1,b'\x00'
33220,0.0,0.0,-14.765398979187012,4.502281665802002,-2.118342876434326,-0.09877240657806396,0.11704958230257034,-0.032459843903779984,0.0,0.0,0.0,38,55,-17,1,b'\x00'
33440,0.0,0.0,-15.311004638671875,6.062698841094971,-2.1704928874969482,0.018115481361746788,0.13403519988059998,-0.05154512822628021,0.0,0.0,0.0,37,54,-18,0,b'\x00'
33660,0.0,0.0,-15.221855163574219,7.100621700286865,-2.767956495285034,0.03991201892495155,0.03685419261455536,-0.024779045954346657,0.0,0.0,0.0,37,54,-18,0,b'\x00'
33880,0.0,0.0,-14.081795692443848,7.9905266761779785,-3.1576197147369385,0.24386483430862427,0.13534954190254211,-0.057593390345573425,0.0,0.0,0.0,38,54,-17,0,b'\x00'
34100,0.0,0.0,-7.923727512359619,9.43460464477539,-6.569291591644287,0.7098618745803833,0.16201645135879517,-0.3225240409374237,0.0,0.0,0.0,37,55,-18,1,b'\x00'
34320,0.0,0.0,-3.651740074157715,11.103971481323242,-10.280781745910645,0.07506370544433594,0.17426593601703644,-0.15038348734378815,0.0,0.0,0.0,37,54,-18,0,b'\x00'
34540,0.0,0.0,-0.9363343119621277,13.194609642028809,-13.92585277557373,0.4397971034049988,0.23151905834674835,-0.3295900225639343,0.0,0.0,0.0,38,54,-18,0,b'\x00'
34760,0.0,0.0,1.0588304996490479,15.730704307556152,-18.9812068939209,0.12262267619371414,0.23615893721580505,-0.4224531352519989,0.0,0.0,0.0,38,54,-17,1,b'\x00'
34980,0.0,0.0,-1.6098552942276,19.343671798706055,-24.857505798339844,-0.2039291262626648,0.16550084948539734,-0.46864190697669983,0.0,0.0,0.0,38,54,-17,0,b'\x00'
35200,0.0,0.0,-9.894340515136719,24.621444702148438,-30.174396514892578,-0.5692220330238342,0.10180117189884186,-0.6348010301589966,0.0,0.0,0.0,38,54,-17,1,b'\x00'
35420,0.0,0.0,-15.84323501586914,27.546804428100586,-31.60009002685547,0.24313980340957642,-0.1223360151052475,0.19401411712169647,0.0,0.0,0.0,37,54,-18,0,b'\x00'
35640,0.0,0.0,-11.310575485229492,22.73891830444336,-30.626325607299805,0.24872152507305145,-0.1525738388299942,0.08880351483821869,0.0,0.0,0.0,37,54,-18,0,b'\x00'
35860,0.0,0.0,-6.117856502532959,17.420177459716797,-32.64826965332031,0.5057413578033447,-0.26503786444664,-0.08395610749721527,0.0,0.0,0.0,38,54,-17,1,b'\x00'
36080,0.0,0.0,-1.8449203968048096,10.036993980407715,-35.08622360229492,0.21111169457435608,-0.49488797783851624,-0.24179325997829437,0.0,0.0,0.0,37,55,-18,1,b'\x00'
36300,0.0,0.0,-3.622238874435425,4.428329944610596,-40.84909439086914,-0.21114110946655273,-0.5303967595100403,-0.5906597375869751,0.0,0.0,0.0,37,55,-18,0,b'\x00'
36520,0.0,0.0,-7.282349586486816,1.6733949184417725,-49.51198196411133,-0.030334794893860817,-0.2951187491416931,-0.6429224014282227,0.0,0.0,0.0,37,54,-18,0,b'\x00'
36740,0.0,0.0,-4.651030540466309,-2.276221513748169,-55.98406982421875,0.11099013686180115,-0.07865406572818756,-0.4009416699409485,0.0,0.0,0.0,37,54,-18,0,b'\x00'
36960,0.0,0.0,-10.491409301757812,3.5162503719329834,-61.18001174926758,-0.21005496382713318,0.10595285147428513,-0.3215140402317047,0.0,0.0,0.0,37,54,-18,0,b'\x00'
37180,0.0,0.0,-11.331993103027344,5.445736885070801,-64.99674224853516,-0.04229738563299179,0.12773463129997253,-0.1754734069108963,0.0,0.0,0.0,37,55,-18,0,b'\x00'
37400,0.0,0.0,-17.316415786743164,13.97438907623291,-66.56889343261719,-0.06401049345731735,0.26244768500328064,-0.05072658136487007,0.0,0.0,0.0,37,55,-18,1,b'\x00'
37620,0.0,0.0,-13.82435131072998,12.856484413146973,-67.11346435546875,0.10471722483634949,0.12105897814035416,0.02372867986559868,0.0,0.0,0.0,37,55,-18,1,b'\x00'
37840,0.0,0.0,-13.160980224609375,13.530189514160156,-67.82122039794922,0.016138212755322456,0.06941630691289902,0.04232872650027275,0.0,0.0,0.0,37,54,-18,1,b'\x00'
38060,0.0,0.0,-11.174518585205078,12.233638763427734,-66.51112365722656,0.06095904856920242,0.04518487676978111,0.22160521149635315,0.0,0.0,0.0,37,54,-18,0,b'\x00'
38280,0.0,0.0,-6.363175392150879,9.243341445922852,-65.18877410888672,0.23949629068374634,0.15990033745765686,0.09203173965215683,0.0,0.0,0.0,37,54,-18,0,b'\x00'
38500,0.0,0.0,-0.6084545850753784,5.883772850036621,-64.58878326416016,0.12487973272800446,0.1809547245502472,-0.0037272628396749496,0.0,0.0,0.0,37,55,-18,1,b'\x00'
38720,0.0,0.0,-1.0800247192382812,8.113577842712402,-64.99971771240234,-0.12480400502681732,0.1151323914527893,-0.005964066367596388,0.0,0.0,0.0,38,54,-17,0,b'\x00'
38940,0.0,0.0,-6.651013374328613,13.954367637634277,-64.56809997558594,-0.15907175838947296,0.005860547535121441,-0.00733587983995676,0.0,0.0,0.0,37,54,-18,0,b'\x00'
39160,0.0,0.0,-7.2588067054748535,13.604501724243164,-65.01372528076172,0.060971666127443314,-0.11621644347906113,-0.009765789844095707,0.0,0.0,0.0,37,54,-18,0,b'\x00'
39380,0.0,0.0,-9.952469825744629,14.38875675201416,-66.39849853515625,-0.3489328920841217,-0.12601538002490997,-0.0702783539891243,0.0,0.0,0.0,37,54,-18,0,b'\x00'
39600,0.0,0.0,-24.222841262817383,25.24172592163086,-67.48707580566406,-0.42358964681625366,-0.16137215495109558,-0.2860960066318512,0.0,0.0,0.0,37,55,-18,1,b'\x00'
39820,0.0,0.0,-42.10858917236328,40.570735931396484,-72.05846405029297,-0.15326941013336182,-0.08233034610748291,-0.5885416865348816,0.0,0.0,0.0,37,55,-18,1,b'\x00'
40040,0.0,0.0,-57.37928771972656,54.80290603637695,-75.86186218261719,0.21125385165214539,-0.05904266983270645,-0.3208036720752716,0.0,0.0,0.0,38,54,-17,0,b'\x00'
40260,0.0,0.0,-50.03851318359375,47.04633331298828,-77.96964263916016,-0.04188161715865135,-0.10850244015455246,0.2621980607509613,0.0,0.0,0.0,37,55,-18,0,b'\x00'
40480,0.0,0.0,-44.752891540527344,41.39675521850586,-73.27166748046875,0.00017428025603294373,-0.048929888755083084,0.3465355336666107,0.0,0.0,0.0,37,54,-18,0,b'\x00'
40700,0.0,0.0,-35.36909103393555,32.13557052612305,-71.31462097167969,-0.06239624321460724,0.051796287298202515,0.14551030099391937,0.0,0.0,0.0,37,54,-18,0,b'\x00'
40920,0.0,0.0,-35.082271575927734,33.459999084472656,-69.31646728515625,0.08223836123943329,0.11199934035539627,0.2299792766571045,0.0,0.0,0.0,37,55,-18,1,b'\x00'
41140,0.0,0.0,-27.4655818939209,27.637462615966797,-65.12327575683594,-0.3383978605270386,0.103925921022892,0.4785006046295166,0.0,0.0,0.0,38,54,-17,1,b'\x00'
41360,0.0,0.0,-28.443456649780273,29.70949935913086,-60.51648712158203,0.018838100135326385,0.17059530317783356,0.10106406360864639,0.0,0.0,0.0,37,54,-18,0,b'\x00'
41580,0.0,0.0,-25.960918426513672,28.924922943115234,-59.3437385559082,-0.025984153151512146,0.06617380678653717,0.07884608209133148,0.0,0.0,0.0,37,54,-18,0,b'\x00'
41800,0.0,0.0,-26.529632568359375,29.137805938720703,-58.81315994262695,0.054800696671009064,-0.04788758605718613,0.001644029514864087,0.0,0.0,0.0,37,54,-18,0,b'\x00'
42020,0.0,0.0,-23.231231689453125,25.97911262512207,-58.87459945678711,0.08211950957775116,0.033553894609212875,0.05394575744867325,0.0,0.0,0.0,37,55,-18,1,b'\x00'
42240,0.0,0.0,-21.459609985351562,24.877647399902344,-58.6368522644043,0.0027029328048229218,-0.05458418279886246,0.060238104313611984,0.0,0.0,0.0,37,54,-18,0,b'\x00'
42460,0.0,0.0,-20.572601318359375,21.965551376342773,-57.38212585449219,0.01872251369059086,-0.17284640669822693,0.12397962063550949,0.0,0.0,0.0,37,54,-18,0,b'\x00'
42680,0.0,0.0,-20.63320541381836,20.3768253326416,-56.62519836425781,-0.043637096881866455,-0.08984643965959549,0.05125553533434868,0.0,0.0,0.0,37,54,-18,0,b'\x00'
42900,0.0,0.0,-20.23056411743164,18.80904769897461,-56.26642990112305,0.02489476464688778,-0.0470418706536293,0.023548275232315063,0.0,0.0,0.0,37,54,-18,0,b'\x00'
43120,0.0,0.0,-19.282976150512695,17.594514846801758,-56.08803939819336,0.03205558657646179,-0.013752303086221218,0.030816441401839256,0.0,0.0,0.0,37,54,-18,0,b'\x00'
43340,0.0,0.0,-19.193859100341797,17.091657638549805,-56.110740661621094,-0.009648274630308151,-0.04593756049871445,-0.041307736188173294,0.0,0.0,0.0,38,53,-17,0,b'\x00'
43560,0.0,0.0,-19.907670974731445,16.691116333007812,-56.63370895385742,-0.02669217437505722,-0.08614049106836319,-0.06807917356491089,0.0,0.0,0.0,38,53,-17,0,b'\x00'
43780,0.0,0.0,-21.010696411132812,16.676925659179688,-57.444576263427734,-0.004080623388290405,-0.05230840668082237,-0.05326617881655693,0.0,0.0,0.0,37,53,-18,0,b'\x00'
44000,0.0,0.0,-20.58495330810547,16.467668533325195,-57.91120910644531,0.025597836822271347,0.07387863099575043,0.0019270258489996195,0.0,0.0,0.0,37,54,-18,0,b'\x00'
44220,0.0,0.0,-18.619579315185547,16.24957847595215,-57.90839385986328,0.12936581671237946,0.14714457094669342,0.040881041437387466,0.0,0.0,0.0,38,53,-18,0,b'\x00'
44440,0.0,0.0,-15.121190071105957,15.01902961730957,-58.08317947387695,0.10537832230329514,0.13024935126304626,-0.006387115456163883,0.0,0.0,0.0,37,53,-18,0,b'\x00'
44660,0.0,0.0,-14.984087944030762,15.713140487670898,-58.322357177734375,-0.005976814776659012,0.030575867742300034,-0.036907363682985306,0.0,0.0,0.0,37,54,-18,1,b'\x00'
44880,0.0,0.0,-15.75913143157959,16.421720504760742,-58.79637908935547,0.0013826116919517517,-0.02767404168844223,-0.05365068465471268,0.0,0.0,0.0,38,53,-17,1,b'\x00'
45100,0.0,0.0,-14.86324691772461,15.038928985595703,-59.75722885131836,0.0855584591627121,-0.041484735906124115,-0.07545607537031174,0.0,0.0,0.0,38,54,-17,1,b'\x00'
45320,0.0,0.0,-14.43075180053711,14.537482261657715,-60.7032585144043,-0.013877421617507935,0.04330023378133774,-0.08250582218170166,0.0,0.0,0.0,38,53,-17,1,b'\x00'
45540,0.0,0.0,-14.603497505187988,15.469294548034668,-61.847049713134766,0.018686000257730484,0.059287965297698975,-0.0788905918598175,0.0,0.0,0.0,37,54,-18,1,b'\x00'
45760,0.0,0.0,-15.972875595092773,16.91742706298828,-62.57756042480469,-0.08021821081638336,0.005819442681968212,-0.010425616055727005,0.0,0.0,0.0,38,54,-17,1,b'\x00'
45980,0.0,0.0,-15.495298385620117,16.815799713134766,-62.619380950927734,0.04622664675116539,0.06040501222014427,0.04889760911464691,0.0,0.0,0.0,38,54,-17,0,b'\x00'
46200,0.0,0.0,-14.860851287841797,16.5799560546875,-62.23051071166992,-0.02396443858742714,-0.02413921058177948,0.039816714823246,0.0,0.0,0.0,38,54,-18,0,b'\x00'
46420,0.0,0.0,-14.533466339111328,15.7824125289917,-61.79054260253906,0.005078904330730438,-0.032191455364227295,0.021599754691123962,0.0,0.0,0.0,37,55,-18,1,b'\x00'
46640,0.0,0.0,-14.086424827575684,15.217791557312012,-61.548240661621094,0.01534525491297245,-2.7366913855075836e-05,0.025743916630744934,0.0,0.0,0.0,38,54,-18,0,b'\x00'
46860,0.0,0.0,-13.575928688049316,14.801759719848633,-61.50373077392578,0.0198154766112566,-0.006333610042929649,-0.00017587235197424889,0.0,0.0,0.0,37,55,-18,0,b'\x00'
47080,0.0,0.0,-12.688606262207031,13.81231689453125,-61.83335494995117,0.04886368289589882,-0.007712080143392086,0.0021124815102666616,0.0,0.0,0.0,37,54,-18,0,b'\x00'
47300,0.0,0.0,-12.306163787841797,13.430259704589844,-61.90125274658203,-0.010832447558641434,0.0015910407528281212,0.021586136892437935,0.0,0.0,0.0,37,55,-18,1,b'\x00'
47520,0.0,0.0,-12.482645988464355,13.593194961547852,-61.774513244628906,0.002130512148141861,-0.0060165049508214,0.010853826999664307,0.0,0.0,0.0,38,54,-18,0,b'\x00'
47740,0.0,0.0,-11.663042068481445,12.80968189239502,-62.72307586669922,0.10603708028793335,-0.0013923654332756996,-0.09310935437679291,0.0,0.0,0.0,37,54,-18,0,b'\x00'
47960,0.0,0.0,-10.175379753112793,11.363393783569336,-62.494564056396484,0.00211343914270401,-0.023805495351552963,0.11718608438968658,0.0,0.0,0.0,37,54,-18,0,b'\x00'
48180,0.0,0.0,-9.052167892456055,10.278882026672363,-61.336124420166016,0.011882467195391655,0.01602143608033657,0.07156120985746384,0.0,0.0,0.0,38,54,-18,0,b'\x00'
48400,0.0,0.0,-8.346790313720703,9.484360694885254,-60.532386779785156,0.05332859978079796,-0.029033686965703964,0.07022161781787872,0.0,0.0,0.0,36,54,-18,0,b'\x00'
48620,0.0,0.0,-8.11255931854248,8.826706886291504,-60.40822982788086,-0.022588368505239487,-0.061868928372859955,-0.01957528293132782,0.0,0.0,0.0,36,55,-18,1,b'\x00'
48840,0.0,0.0,-9.04704761505127,8.879267692565918,-60.90220260620117,-0.016155287623405457,-0.05570593476295471,-0.05422988533973694,0.0,0.0,0.0,36,55,-18,1,b'\x00'
49060,0.0,0.0,-9.742705345153809,9.457168579101562,-61.65745544433594,-0.019089415669441223,0.03814353793859482,-0.06616101413965225,0.0,0.0,0.0,36,55,-18,0,b'\x00'
49280,0.0,0.0,-10.864005088806152,10.905616760253906,-62.50817108154297,-0.036528170108795166,0.01985885389149189,-0.07644522935152054,0.0,0.0,0.0,37,55,-17,1,b'\x00'
49500,0.0,0.0,-12.051867485046387,12.014198303222656,-63.486717224121094,-0.009103834629058838,-0.0012786011211574078,-0.0716259703040123,0.0,0.0,0.0,37,55,-17,1,b'\x00'
49720,0.0,0.0,-12.505890846252441,12.382174491882324,-64.31051635742188,0.004462976008653641,-0.003551545087248087,-0.04663396626710892,0.0,0.0,0.0,36,54,-18,0,b'\x00'
49940,0.0,0.0,-12.10385799407959,12.222187995910645,-64.54212188720703,0.02101932093501091,0.02295626513659954,0.00869524385780096,0.0,0.0,0.0,36,54,-19,0,b'\x00'
50160,0.0,0.0,-11.186150550842285,11.763223648071289,-64.3169937133789,0.03829564154148102,0.028314467519521713,0.03109510987997055,0.0,0.0,0.0,37,54,-18,1,b'\x00'
50380,0.0,0.0,-10.047781944274902,11.0087308883667,-63.97267150878906,0.03382108733057976,0.014600682072341442,0.034049127250909805,0.0,0.0,0.0,37,55,-18,1,b'\x00'
50600,0.0,0.0,-8.974202156066895,10.28078842163086,-63.620521545410156,0.023251833394169807,0.01870955526828766,0.04664761945605278,0.0,0.0,0.0,36,54,-19,0,b'\x00'
50820,0.0,0.0,-8.391282081604004,9.935236930847168,-63.1667366027832,0.008445922285318375,-0.0014135590754449368,0.03702646121382713,0.0,0.0,0.0,36,55,-19,1,b'\x00'
51040,0.0,0.0,-8.329427719116211,9.711138725280762,-63.052066802978516,-0.010565429925918579,-0.01485520415008068,-0.0007887892425060272,0.0,0.0,0.0,37,54,-19,1,b'\x00'
51260,0.0,0.0,-9.19599437713623,10.345449447631836,-63.110660552978516,-0.03788287937641144,-0.007081455085426569,-0.01548519916832447,0.0,0.0,0.0,37,55,-19,1,b'\x00'
51480,0.0,0.0,-10.000514030456543,11.004968643188477,-63.31153106689453,-0.02855011820793152,0.0022254614159464836,-0.025562742725014687,0.0,0.0,0.0,38,54,-19,0,b'\x00'
51700,0.0,0.0,-10.79010009765625,11.655072212219238,-63.5642204284668,-0.019086170941591263,-0.0084505220875144,-0.028746677562594414,0.0,0.0,0.0,37,54,-19,0,b'\x00'
51920,0.0,0.0,-11.26989459991455,12.028082847595215,-63.851348876953125,-0.0066001079976558685,0.002790299244225025,-0.020528189837932587,0.0,0.0,0.0,38,54,-18,1,b'\x00'
52140,0.0,0.0,-11.495280265808105,12.374817848205566,-63.990760803222656,-0.006093069911003113,0.01836441084742546,-0.009089969098567963,0.0,0.0,0.0,37,54,-19,0,b'\x00'
52360,0.0,0.0,-11.62462043762207,12.67618465423584,-64.00590515136719,-0.0053796544671058655,0.004980238154530525,0.002089187502861023,0.0,0.0,0.0,38,55,-18,1,b'\x00'
52580,0.0,0.0,-11.821046829223633,12.77514362335205,-63.94736099243164,-0.011216461658477783,-0.004431991372257471,-0.003112711012363434,0.0,0.0,0.0,38,54,-17,1,b'\x00'
52800,0.0,0.0,-12.167054176330566,13.088950157165527,-64.037353515625,-0.0065674930810928345,0.0031633246690034866,-0.023061314597725868,0.0,0.0,0.0,38,55,-17,1,b'\x00'
53020,0.0,0.0,-12.288230895996094,13.384212493896484,-64.24969482421875,0.00965689867734909,0.02620570734143257,-0.023578714579343796,0.0,0.0,0.0,37,54,-18,0,b'\x00'
53240,0.0,0.0,-11.965725898742676,13.374724388122559,-64.57675170898438,0.01817147806286812,0.015474582090973854,-0.024094875901937485,0.0,0.0,0.0,38,54,-17,1,b'\x00'
53460,0.0,0.0,-11.219420433044434,12.949565887451172,-64.80525970458984,0.030875200405716896,0.0276956707239151,0.0014541419222950935,0.0,0.0,0.0,38,54,-17,1,b'\x00'
53680,0.0,0.0,-10.512470245361328,12.352225303649902,-64.80519104003906,0.02498815208673477,-0.004951221402734518,0.014363957569003105,0.0,0.0,0.0,38,54,-17,0,b'\x00'
53900,0.0,0.0,-9.375452041625977,11.37327766418457,-64.63958740234375,0.02429279312491417,0.0006364202126860619,0.027462543919682503,0.0,0.0,0.0,38,54,-17,1,b'\x00'
54120,0.0,0.0,-8.90450382232666,10.895430564880371,-64.49528503417969,-0.002345707267522812,-0.0006450805813074112,0.010884908959269524,0.0,0.0,0.0,37,55,-18,0,b'\x00'
54340,0.0,0.0,-9.245413780212402,11.256096839904785,-64.4463119506836,-0.028826765716075897,0.012862429022789001,-0.010784449055790901,0.0,0.0,0.0,37,54,-18,1,b'\x00'
54560,0.0,0.0,-10.303318977355957,12.50406265258789,-64.75475311279297,-0.016520217061042786,0.036682091653347015,-0.062105510383844376,0.0,0.0,0.0,38,54,-17,0,b'\x00'
54780,0.0,0.0,-10.364201545715332,13.089804649353027,-65.58424377441406,0.01449514925479889,0.03045797161757946,-0.06042845547199249,0.0,0.0,0.0,38,55,-18,1,b'\x00'
55000,0.0,0.0,-11.124319076538086,13.740182876586914,-66.17797088623047,-0.021605707705020905,-0.03050350770354271,-0.029253363609313965,0.0,0.0,0.0,37,54,-18,0,b'\x00'
55220,0.0,0.0,-11.634060859680176,13.832822799682617,-66.28175354003906,-0.013683222234249115,-0.02413974329829216,0.0010264231823384762,0.0,0.0,0.0,37,54,-18,0,b'\x00'
55440,0.0,0.0,-11.629332542419434,13.704763412475586,-66.07262420654297,-0.0029271282255649567,0.009551816619932652,0.02723625674843788,0.0,0.0,0.0,37,55,-18,1,b'\x00'
55660,0.0,0.0,-11.275652885437012,13.609467506408691,-65.56597900390625,0.008755676448345184,0.017638860270380974,0.037298090755939484,0.0,0.0,0.0,37,54,-18,0,b'\x00'
55880,0.0,0.0,-10.531744956970215,13.078158378601074,-65.17011260986328,0.02166879177093506,0.0001225341111421585,0.01583246700465679,0.0,0.0,0.0,37,55,-18,0,b'\x00'
56100,0.0,0.0,-9.81225299835205,12.28697681427002,-65.26996612548828,0.028586018830537796,-0.007115152198821306,-0.014403184875845909,0.0,0.0,0.0,37,55,-18,1,b'\x00'
56320,0.0,0.0,-9.451481819152832,11.881136894226074,-65.58142852783203,-0.008488070219755173,-0.00905583519488573,-0.021238362416625023,0.0,0.0,0.0,37,54,-18,0,b'\x00'
56540,0.0,0.0,-10.16132640838623,12.362818717956543,-65.82420349121094,-0.024553805589675903,-0.00645957887172699,-0.026232246309518814,0.0,0.0,0.0,37,55,-18,1,b'\x00'
56760,0.0,0.0,-10.718317031860352,12.840102195739746,-66.0544204711914,-0.00955042615532875,-0.014516610652208328,-0.026955772191286087,0.0,0.0,0.0,38,54,-17,1,b'\x00'
56980,0.0,0.0,-11.318055152893066,13.229269027709961,-66.351318359375,-0.009335793554782867,-0.004897142294794321,-0.02319825068116188,0.0,0.0,0.0,37,54,-18,0,b'\x00'
57200,0.0,0.0,-11.673321723937988,13.655989646911621,-66.43167877197266,-0.004089824855327606,0.01921534165740013,0.0030706385150551796,0.0,0.0,0.0,37,55,-18,1,b'\x00'
57420,0.0,0.0,-11.628323554992676,13.77280044555664,-66.25826263427734,-0.010558988898992538,0.0050636520609259605,0.01281367614865303,0.0,0.0,0.0,38,54,-17,1,b'\x00'
57640,0.0,0.0,-11.072229385375977,13.507362365722656,-66.22554779052734,0.029100783169269562,0.04853431135416031,-0.042497485876083374,0.0,0.0,0.0,37,54,-18,1,b'\x00'
57860,0.0,0.0,-10.656648635864258,13.819280624389648,-66.555908203125,-0.047182101756334305,0.05246414989233017,0.030316557735204697,0.0,0.0,0.0,37,55,-18,1,b'\x00'
58080,0.0,0.0,-13.494893074035645,16.60443878173828,-65.91996765136719,-0.16616778075695038,0.0423419214785099,0.015645736828446388,0.0,0.0,0.0,37,55,-18,1,b'\x00'
58300,0.0,0.0,-17.47594451904297,21.26837921142578,-63.16346740722656,-0.12499485164880753,0.16547010838985443,0.2504442632198334,0.0,0.0,0.0,38,55,-18,1,b'\x00'
58520,0.0,0.0,-15.069414138793945,21.746896743774414,-62.721641540527344,0.20383287966251373,0.2673346698284149,0.05038733780384064,0.0,0.0,0.0,38,55,-17,1,b'\x00'
58740,0.0,0.0,-12.56925106048584,23.717275619506836,-61.420982360839844,-0.11396025121212006,0.3509507179260254,0.18553349375724792,0.0,0.0,0.0,38,54,-17,1,b'\x00'
58960,0.0,0.0,-10.248690605163574,23.60004234313965,-58.0430793762207,0.17686805129051208,-0.013379955664277077,0.24035970866680145,0.0,0.0,0.0,37,54,-18,0,b'\x00'
59180,0.0,0.0,-7.445760250091553,19.504663467407227,-57.44620895385742,-0.07944758236408234,-0.18856331706047058,-0.009134629741311073,0.0,0.0,0.0,37,55,-18,1,b'\x00'
59400,0.0,0.0,-10.69714641571045,19.913875579833984,-57.26021194458008,-0.07978864014148712,-0.16216963529586792,-0.0241185761988163,0.0,0.0,0.0,38,54,-17,1,b'\x00'
59620,0.0,0.0,-10.886253356933594,19.065597534179688,-56.6255989074707,-0.0020191483199596405,-0.000913640484213829,0.04535087198019028,0.0,0.0,0.0,37,55,-18,1,b'\x00'
59840,0.0,0.0,-10.71314811706543,18.634599685668945,-55.915283203125,0.016474375501275063,-0.05769873782992363,0.04544593021273613,0.0,0.0,0.0,37,54,-18,0,b'\x00'
60060,0.0,0.0,-9.836118698120117,16.60670280456543,-55.521419525146484,0.005262404680252075,-0.11804916709661484,0.0305995661765337,0.0,0.0,0.0,37,54,-18,0,b'\x00'
60280,0.0,0.0,-10.006509780883789,15.30898666381836,-54.535770416259766,-0.042152103036642075,-0.08542753756046295,0.09717832505702972,0.0,0.0,0.0,37,55,-18,1,b'\x00'
60500,0.0,0.0,-9.894063949584961,14.384293556213379,-52.47380447387695,0.006585970520973206,-0.025461699813604355,0.13855816423892975,0.0,0.0,0.0,38,55,-17,1,b'\x00'
60720,0.0,0.0,-8.876482963562012,13.900988578796387,-51.37276840209961,0.027153179049491882,0.07022914290428162,0.021345501765608788,0.0,0.0,0.0,38,55,-17,0,b'\x00'
60940,0.0,0.0,-7.979789733886719,13.939197540283203,-51.47859573364258,0.057181648910045624,0.027155019342899323,-0.025079971179366112,0.0,0.0,0.0,38,55,-17,0,b'\x00'
61160,0.0,0.0,-7.547479629516602,13.486124038696289,-52.04816818237305,0.005194354802370071,-0.027537183836102486,-0.08201168477535248,0.0,0.0,0.0,37,54,-18,0,b'\x00'
61380,0.0,0.0,-8.297846794128418,13.662519454956055,-53.491512298583984,-0.020611371845006943,-0.013002634979784489,-0.14616385102272034,0.0,0.0,0.0,37,55,-17,1,b'\x00'
61600,0.0,0.0,-9.50599479675293,15.222820281982422,-54.93849563598633,-0.02111997827887535,0.07022175192832947,-0.09771579504013062,0.0,0.0,0.0,37,55,-18,0,b'\x00'
61820,0.0,0.0,-9.933816909790039,16.30607032775879,-55.86138916015625,-0.006087206304073334,0.037991635501384735,-0.062094204127788544,0.0,0.0,0.0,37,55,-18,0,b'\x00'
62040,0.0,0.0,-10.805715560913086,17.20322608947754,-56.17639923095703,-0.015615351498126984,-0.003509282600134611,-0.009849010966718197,0.0,0.0,0.0,38,54,-17,1,b'\x00'
62260,0.0,0.0,-10.887453079223633,17.413352966308594,-55.96560287475586,-0.006477020680904388,0.021499712020158768,0.02171863615512848,0.0,0.0,0.0,37,55,-18,1,b'\x00'
62480,0.0,0.0,-10.683300971984863,17.167898178100586,-55.620853424072266,0.015566660091280937,-0.031860969960689545,0.023155389353632927,0.0,0.0,0.0,37,54,-18,0,b'\x00'
62700,0.0,0.0,-10.446029663085938,16.472599029541016,-55.37114715576172,-0.004016142338514328,-0.041212115436792374,0.006010397337377071,0.0,0.0,0.0,37,54,-18,0,b'\x00'
62920,0.0,0.0,-10.575532913208008,16.47332000732422,-55.30280303955078,0.01738997921347618,0.018451441079378128,-0.010075580328702927,0.0,0.0,0.0,37,54,-18,0,b'\x00'
63140,0.0,0.0,-10.032620429992676,16.363712310791016,-55.48365020751953,0.031924232840538025,0.02218102663755417,-0.010583640076220036,0.0,0.0,0.0,38,55,-17,1,b'\x00'
63360,0.0,0.0,-9.873416900634766,16.252416610717773,-55.56875228881836,0.010289259254932404,-0.02355339005589485,-0.00912875309586525,0.0,0.0,0.0,37,55,-18,1,b'\x00'
63580,0.0,0.0,-9.68376350402832,15.851542472839355,-55.55436706542969,0.0015051662921905518,-0.013246877118945122,0.004368035588413477,0.0,0.0,0.0,37,55,-18,1,b'\x00'
63800,0.0,0.0,-9.654094696044922,15.846259117126465,-55.4252815246582,0.0036294013261795044,0.013108969666063786,0.015022555366158485,0.0,0.0,0.0,37,54,-18,1,b'\x00'
64020,0.0,0.0,-9.374367713928223,15.941461563110352,-55.2656364440918,0.010826071724295616,0.022668257355690002,0.00437706895172596,0.0,0.0,0.0,38,55,-17,0,b'\x00'
64240,0.0,0.0,-9.238382339477539,16.043855667114258,-55.326995849609375,0.006707390770316124,0.007268224842846394,-0.006974753923714161,0.0,0.0,0.0,38,54,-18,1,b'\x00'
64460,0.0,0.0,-9.276167869567871,15.869818687438965,-55.69002151489258,-0.002821594476699829,-0.03105115331709385,-0.03802437335252762,0.0,0.0,0.0,38,54,-18,0,b'\x00'
64680,0.0,0.0,-9.72553539276123,16.087217330932617,-56.15067672729492,-0.008045010268688202,0.0024534016847610474,-0.03145443648099899,0.0,0.0,0.0,37,55,-18,0,b'\x00'
64900,0.0,0.0,-10.061440467834473,16.693347930908203,-56.216705322265625,-0.003780767321586609,0.040101390331983566,0.0041888924315571785,0.0,0.0,0.0,38,54,-17,1,b'\x00'
65120,0.0,0.0,-9.73648452758789,16.613412857055664,-56.258541107177734,0.030490946024656296,-0.01671260967850685,-0.004146187100559473,0.0,0.0,0.0,38,54,-18,0,b'\x00'
65340,0.0,0.0,-9.00162410736084,15.498558044433594,-56.38978576660156,0.0420025959610939,-0.04922391474246979,-0.0025829435326159,0.0,0.0,0.0,37,55,-18,1,b'\x00'
65560,0.0,0.0,-8.54514217376709,14.62391471862793,-56.42095947265625,0.016761258244514465,-0.024273008108139038,0.0015820551197975874,0.0,0.0,0.0,37,55,-18,1,b'\x00'
65780,0.0,0.0,-8.001106262207031,13.900653839111328,-56.490718841552734,0.02824406325817108,-0.038829974830150604,0.0014836308546364307,0.0,0.0,0.0,37,54,-18,0,b'\x00'
66000,0.0,0.0,-8.2181978225708,13.352203369140625,-56.79532241821289,0.0009953752160072327,-0.06776737421751022,-0.03846288472414017,0.0,0.0,0.0,37,54,-18,0,b'\x00'
66220,0.0,0.0,-8.44088363647461,13.23250961303711,-57.385337829589844,0.0026915408670902252,0.02598031423985958,-0.038910988718271255,0.0,0.0,0.0,37,54,-18,1,b'\x00'
66440,0.0,0.0,-8.869418144226074,14.300154685974121,-57.81794738769531,0.010161684826016426,0.06295517832040787,-0.017588166519999504,0.0,0.0,0.0,37,54,-18,0,b'\x00'
66660,0.0,0.0,-8.868117332458496,14.55919361114502,-58.05539321899414,0.008449740707874298,-0.02090016007423401,-0.019469037652015686,0.0,0.0,0.0,38,55,-17,1,b'\x00'
66880,0.0,0.0,-8.904227256774902,14.024035453796387,-58.3266487121582,-0.007851693779230118,-0.05454528331756592,-0.012783881276845932,0.0,0.0,0.0,37,55,-18,1,b'\x00'
67100,0.0,0.0,-9.560990333557129,13.944085121154785,-58.461849212646484,-0.016648057848215103,-0.04880349338054657,-0.010261490941047668,0.0,0.0,0.0,37,54,-18,0,b'\x00'
67320,0.0,0.0,-9.87764835357666,13.45247745513916,-58.67314147949219,-0.012694615870714188,-0.06967408210039139,-0.03110628016293049,0.0,0.0,0.0,37,54,-17,0,b'\x00'
67540,0.0,0.0,-9.968061447143555,13.117931365966797,-59.181488037109375,0.034033630043268204,0.013174292631447315,-0.03647627308964729,0.0,0.0,0.0,37,55,-18,0,b'\x00'
67760,0.0,0.0,-9.08690071105957,12.954586029052734,-59.8549690246582,0.04149147868156433,0.02739827334880829,-0.03957179933786392,0.0,0.0,0.0,38,54,-17,1,b'\x00'
67980,0.0,0.0,-9.275513648986816,13.263837814331055,-60.33696365356445,-0.025334879755973816,0.020763350650668144,-0.014070936478674412,0.0,0.0,0.0,37,54,-18,0,b'\x00'
68200,0.0,0.0,-10.142370223999023,14.723427772521973,-60.30816650390625,-0.013660948723554611,0.09008840471506119,0.02073214016854763,0.0,0.0,0.0,37,55,-18,1,b'\x00'
68420,0.0,0.0,-9.81795883178711,14.54459285736084,-60.32453155517578,0.020374301820993423,-0.05782506987452507,0.004776084329932928,0.0,0.0,0.0,38,55,-17,1,b'\x00'
68640,0.0,0.0,-9.015626907348633,13.24654483795166,-60.359989166259766,0.05850675702095032,-0.042292021214962006,-0.004697686992585659,0.0,0.0,0.0,38,55,-17,1,b'\x00'
68860,0.0,0.0,-9.064098358154297,13.002517700195312,-60.464866638183594,-0.037341613322496414,-0.008389794267714024,-0.0025577223859727383,0.0,0.0,0.0,37,55,-18,0,b'\x00'
69080,0.0,0.0,-9.961427688598633,14.592227935791016,-60.4351806640625,-0.010139469057321548,0.11284749209880829,0.031347550451755524,0.0,0.0,0.0,38,55,-17,1,b'\x00'
69300,0.0,0.0,-8.737332344055176,15.028325080871582,-60.01271438598633,0.032983966171741486,0.12305859476327896,0.05196715518832207,0.0,0.0,0.0,38,54,-17,1,b'\x00'
69520,0.0,0.0,-6.993258476257324,14.157407760620117,-60.05413818359375,0.07645371556282043,-0.012509340420365334,0.003989228047430515,0.0,0.0,0.0,37,54,-18,0,b'\x00'
69740,0.0,0.0,-6.23137092590332,12.751182556152344,-60.26129150390625,-0.005735285580158234,-0.06861082464456558,-0.030719202011823654,0.0,0.0,0.0,37,54,-18,0,b'\x00'
69960,0.0,0.0,-7.4088239669799805,13.144533157348633,-60.70623779296875,-0.02706446871161461,-0.06640598177909851,-0.048475585877895355,0.0,0.0,0.0,38,54,-17,1,b'\x00'
70180,0.0,0.0,-8.891563415527344,12.607720375061035,-61.3426399230957,-0.055744484066963196,-0.1635192185640335,-0.05732322856783867,0.0,0.0,0.0,37,54,-18,1,b'\x00'
70400,0.0,0.0,-9.518441200256348,12.432801246643066,-62.21343994140625,0.02846609428524971,0.02417176589369774,-0.05453472211956978,0.0,0.0,0.0,37,55,-17,0,b'\x00'
70620,0.0,0.0,-9.487126350402832,13.220930099487305,-62.525917053222656,0.008569223806262016,0.0791458711028099,0.0010782952886074781,0.0,0.0,0.0,38,54,-17,0,b'\x00'
70840,0.0,0.0,-8.776954650878906,13.745246887207031,-62.80069351196289,0.04027838259935379,0.0802047923207283,-0.02477661892771721,0.0,0.0,0.0,37,54,-18,0,b'\x00'
71060,0.0,0.0,-8.526252746582031,14.080471992492676,-62.92840576171875,-0.0016333647072315216,0.010264880955219269,0.017351891845464706,0.0,0.0,0.0,38,54,-17,1,b'\x00'
71280,0.0,0.0,-7.928943634033203,13.78812026977539,-62.68294143676758,0.021431099623441696,0.03134384751319885,0.03798307105898857,0.0,0.0,0.0,38,54,-17,1,b'\x00'
71500,0.0,0.0,-7.270728588104248,13.67441463470459,-62.36421585083008,0.02067447453737259,0.030706632882356644,0.04707467928528786,0.0,0.0,0.0,37,55,-18,1,b'\x00'
71720,0.0,0.0,-6.398676872253418,13.397547721862793,-61.91425704956055,0.02762240171432495,0.051523931324481964,0.054150085896253586,0.0,0.0,0.0,37,55,-18,0,b'\x00'
71940,0.0,0.0,-6.136941909790039,13.221054077148438,-61.39032745361328,-0.016886785626411438,-0.033892057836055756,0.03723921254277229,0.0,0.0,0.0,37,54,-18,0,b'\x00'
72160,0.0,0.0,-6.161795616149902,12.593985557556152,-61.12296676635742,-0.0081697478890419,-0.057792600244283676,0.013273313641548157,0.0,0.0,0.0,37,55,-18,0,b'\x00'
72380,0.0,0.0,-5.868853569030762,11.802139282226562,-61.466888427734375,0.02429196983575821,0.001608111895620823,-0.06521367281675339,0.0,0.0,0.0,37,55,-18,1,b'\x00'
72600,0.0,0.0,-5.798535346984863,12.733969688415527,-62.87903594970703,-0.002244129776954651,0.09334816038608551,-0.11117821931838989,0.0,0.0,0.0,38,54,-17,0,b'\x00'
72820,0.0,0.0,-5.815676689147949,12.979874610900879,-63.253562927246094,-0.0939442366361618,-0.028978552669286728,0.10312981903553009,0.0,0.0,0.0,38,54,-17,1,b'\x00'
73040,0.0,0.0,-6.821661949157715,13.059215545654297,-61.812870025634766,-0.08068346232175827,-0.05599057301878929,0.10830582678318024,0.0,0.0,0.0,37,55,-18,1,b'\x00'
73260,0.0,0.0,-6.624902248382568,12.428323745727539,-60.578861236572266,0.06603874266147614,-0.04177030175924301,0.11561078578233719,0.0,0.0,0.0,37,54,-18,0,b'\x00'
73480,0.0,0.0,-4.770590305328369,10.208282470703125,-59.228633880615234,0.16668978333473206,-0.06768543273210526,0.10800041258335114,0.0,0.0,0.0,37,54,-18,0,b'\x00'
73700,0.0,0.0,1.581992745399475,3.376664400100708,-60.260135650634766,0.11899428814649582,0.023734472692012787,-0.18061086535453796,0.0,0.0,0.0,38,55,-17,1,b'\x00'
73920,0.0,0.0,-1.3907217979431152,8.365742683410645,-65.3786392211914,-0.0743291899561882,0.161887988448143,-0.3022741973400116,0.0,0.0,0.0,37,55,-18,1,b'\x00'
74140,0.0,0.0,-9.006502151489258,18.755727767944336,-68.58551788330078,-0.5465481281280518,0.14863598346710205,-0.059395093470811844,0.0,0.0,0.0,37,55,-18,0,b'\x00'
74360,0.0,0.0,-29.837974548339844,37.27114486694336,-64.25585174560547,-0.6397045254707336,-0.11513283848762512,0.01913835108280182,0.0,0.0,0.0,38,54,-17,1,b'\x00'
74580,0.0,0.0,-29.88153076171875,33.8828125,-62.2747688293457,0.38164857029914856,-0.3771092891693115,-0.04510793089866638,0.0,0.0,0.0,37,54,-18,0,b'\x00'
74800,0.0,0.0,-22.232898712158203,24.225242614746094,-66.112548828125,0.1936531811952591,-0.0980052649974823,-0.3143909275531769,0.0,0.0,0.0,37,55,-18,1,b'\x00'
75020,0.0,0.0,-5.185843467712402,6.531927108764648,-75.17780303955078,1.0174970626831055,-0.14160650968551636,-0.6359201669692993,0.0,0.0,0.0,38,54,-17,1,b'\x00'
75240,0.0,0.0,45.452693939208984,-43.9344482421875,-83.58442687988281,-0.25303152203559875,0.1257835179567337,-0.6884122490882874,0.0,0.0,0.0,37,55,-18,0,b'\x00'
75460,0.0,0.0,-84.76264953613281,88.8512954711914,-85.08008575439453,-0.13492664694786072,0.2491787225008011,-0.5511152148246765,0.0,0.0,0.0,38,54,-17,1,b'\x00'
75680,0.0,0.0,-138.14736938476562,144.5392303466797,-84.40865325927734,0.21532174944877625,0.20313437283039093,-0.3499113917350769,0.0,0.0,0.0,38,55,-17,1,b'\x00'
75900,0.0,0.0,-119.15447998046875,129.52651977539062,-83.55795288085938,-0.21424543857574463,0.34103041887283325,0.0966985896229744,0.0,0.0,0.0,37,55,-18,1,b'\x00'
76120,0.0,0.0,-138.0609130859375,151.68258666992188,-84.49146270751953,0.013146084733307362,0.2516866624355316,-0.08369525521993637,0.0,0.0,0.0,37,54,-18,0,b'\x00'
76340,0.0,0.0,-174.30401611328125,-171.92579650878906,-82.1273193359375,0.15072095394134521,-0.17350444197654724,0.0037407586351037025,0.0,0.0,0.0,37,54,-18,0,b'\x00'
76560,0.0,0.0,-171.03253173828125,-178.15211486816406,-81.24786376953125,-0.24228201806545258,-0.23595373332500458,-0.03238688409328461,0.0,0.0,0.0,37,54,-18,0,b'\x00'
76780,0.0,0.0,-156.40444946289062,165.4857940673828,-80.15495300292969,-0.166669562458992,-0.1528148055076599,-0.07063237577676773,0.0,0.0,0.0,37,54,-18,0,b'\x00'
77000,0.0,0.0,-158.96656799316406,164.0507049560547,-79.47982025146484,-0.0009621679782867432,-0.36313924193382263,-0.12213203310966492,0.0,0.0,0.0,38,54,-18,0,b'\x00'
77220,0.0,0.0,-150.44512939453125,153.1304931640625,-76.51483917236328,-0.2794208824634552,-0.05403444543480873,-0.38105419278144836,0.0,0.0,0.0,38,54,-17,1,b'\x00'
77440,0.0,0.0,-150.12124633789062,152.1366424560547,-71.89635467529297,0.036417387425899506,-0.042504437267780304,-0.3731440305709839,0.0,0.0,0.0,38,54,-17,1,b'\x00'
77660,0.0,0.0,-148.71395874023438,150.0885772705078,-67.29173278808594,-0.41154763102531433,-0.0810948982834816,-0.2258734107017517,0.0,0.0,0.0,37,55,-18,1,b'\x00'
77880,0.0,0.0,-149.52349853515625,149.784912109375,-64.00537872314453,0.2553516924381256,-0.1676190048456192,-0.2025655210018158,0.0,0.0,0.0,37,55,-18,1,b'\x00'
78100,0.0,0.0,-156.8275909423828,155.22047424316406,-63.32599639892578,0.28462567925453186,0.007274752948433161,-0.1822405904531479,0.0,0.0,0.0,37,55,-18,0,b'\x00'
78320,0.0,0.0,-168.56375122070312,167.0250244140625,-62.65388488769531,0.25474345684051514,0.1041618287563324,-0.07316252589225769,0.0,0.0,0.0,38,54,-18,0,b'\x00'
